stop_id,stop_name,stop_desc,stop_lat,stop_lon,stop_url,location_type,parent_station
"acaquot","A. Caquot","","43.616951","7.061607","","",""
"amiraldegrasse","Amiral de Grasse","","43.698599","6.980958","","",""
"amphores","AMPHORES","","43.574206","7.091210","","",""
"anthala","Anthala","","43.593765","7.111404","","",""
"ateliersmunicipaux","Ateliers Municipaux","","43.605235","7.076213","","",""
"atman","ATMAN","","43.626993","7.048557","","",""
"avdelasarrazine","Av. de la Sarrazine","","43.595101","7.106469","","",""
"balzac","Balzac","","43.577064","7.117972","","",""
"beethoven","Beethoven","","43.616143","7.056243","","",""
"belair","BEL AIR","","43.644155","7.049046","","",""
"belugues","Belugues","","43.617666","7.058131","","",""
"boisdevalbonne","Bois de Valbonne","","43.644115","7.044864","","",""
"bouillide","Bouillide","","43.620004","7.055601","","",""
"bouillides","Bouillides","","43.619872","7.055642","","",""
"briand","Briand","","43.580522","7.119580","","",""
"bruguets","Bruguets","","43.628168","7.036323","","",""
"bruisses","Bruisses","","43.644205","7.016242","","",""
"bruscs","Bruscs","","43.626924","7.053625","","",""
"cardoulines","Cardoulines","","43.625856","7.042162","","",""
"carrière","Carrière","","43.630985","6.999361","","",""
"ccommercial","C. Commercial","","43.602747","7.088444","","",""
"centrecommercial","CENTRE COMMERCIAL","","","","","",""
"chapelledescombes","CHAPELLE DES COMBES","","43.602374","7.091105","","",""
"châteauneuflaferme","Châteauneuf La Ferme","","43.680127","6.971891","","",""
"cigales","Cigales","","43.642275","7.032813","","",""
"cistes","Cistes","","43.606977","7.073604","","",""
"damesblanches","Dames Blanches","","43.577090","7.117965","","",""
"diablesbleus","Diables Bleus","","43.582580","7.120390","","",""
"dugommier","DUGOMMIER","","43.581517","7.119409","","",""
"eganaude","EGANAUDE","","43.623879","7.057230","","",""
"eglisestejeanned’arc","Eglise Ste-Jeanne d’Arc","","43.575056","7.096415","","",""
"estérel","Estérel","","43.570476","7.108720","","",""
"fauvettes","Fauvettes","","43.625218","6.998927","","",""
"fontaine","Fontaine","","43.700061","6.989344","","",""
"fontdecuberte","Font de Cuberte","","43.628240","6.998481","","",""
"foyerleroc","FOYER LE ROC","","43.606693","7.072222","","",""
"garbejaïre","Garbejaïre","","43.623749","7.044964","","",""
"genêts","Genêts","","43.624419","7.031835","","",""
"gpompidou","G. Pompidou","","43.624557","7.049642","","",""
"grvalbonnesophiaantipolis","GR. VALBONNE SOPHIA ANTIPOLIS","","43.624298","7.037250","","",""
"hautsdevalbonne","Hauts de Valbonne","","43.636696","7.004429","","",""
"hôteldeville","Hôtel de Ville","","43.640666","7.007563","","",""
"inria","INRIA","","43.616268","7.067615","","",""
"jardinpauline","Jardin Pauline","","43.572013","7.105256","","",""
"jarrerie","JARRERIE","","43.702585","6.990647","","",""
"labaïsse","La Baïsse","","43.646265","7.011232","","",""
"lapaillotte","La Paillotte","","43.677633","6.979918","","",""
"leriou","LE RIOU","","43.697706","6.977467","","",""
"lesaut","Le Saut","","43.663406","6.986583","","",""
"lesgibous","Les Gibous","","43.675281","6.986131","","",""
"lesmousquettes","Les Mousquettes","","43.678952","6.973786","","",""
"lestrucs","Les Trucs","","43.671907","6.996137","","",""
"logisstclaude","Logis St-Claude","","43.599027","7.101016","","",""
"lycaudiberti","LYC. AUDIBERTI","","43.574099","7.116631","","",""
"lycéeldevinci","Lycée L. De Vinci","","43.604860","7.072866","","",""
"lycéevsabas","LYCÉE VSA BAS","","43.642474","7.035958","","",""
"lycéevsahaut","LYCÉE VSA HAUT","","43.643034","7.037559","","",""
"l’escure","L’Escure","","43.683165","6.975463","","",""
"macarons","Macarons","","43.643654","7.043165","","",""
"novaantipolis","Nova Antipolis","","43.601697","7.093183","","",""
"oliviers","Oliviers","","43.591838","7.115996","","",""
"opiofontneuve","OPIO FONT NEUVE","","43.667668","6.984538","","",""
"opiosanpeyre","Opio San Peyre","","43.668644","6.992763","","",""
"oréades","Oréades","","43.643461","7.012976","","",""
"petiteferme","Petite Ferme","","43.623741","7.001840","","",""
"peyniblou","Peyniblou","","43.623590","7.007944","","",""
"pierrefeu","Pierrefeu","","43.644179","7.018317","","",""
"pindoré","Pin Doré","","43.569477","7.113875","","",""
"placebermond","Place Bermond","","43.621837","7.039234","","",""
"pontdelabrague","Pont de la Brague","","43.639880","7.005703","","",""
"pontdulys","Pont Dulys","","43.572875","7.101366","","",""
"poudeirac","Poudeirac","","43.658072","6.995576","","",""
"printemps","Printemps","","43.570901","7.114462","","",""
"prédulac","PRÉ DU LAC","","43.680788","6.971679","","",""
"pôled’échangesantibes","PÔLE D’ÉCHANGES ANTIBES","","43.587082","7.118786","","",""
"rdptdeschappes","Rd-Pt des Chappes","","43.615367","7.080275","","",""
"rubanbleu","Ruban Bleu","","43.568811","7.110591","","",""
"skema","SKEMA","","43.614186","7.055127","","",""
"slafitte","S. Lafitte","","43.615398","7.054097","","",""
"sorbière","Sorbière","","43.685798","6.978185","","",""
"squaredulys","Square Dulys","","43.572235","7.103470","","",""
"stadedes3moulins","Stade des 3 Moulins","","43.603247","7.079175","","",""
"stadeléonchabert","Stade Léon Chabert","","43.642229","7.027084","","",""
"stadenautique","Stade Nautique","","43.589258","7.118185","","",""
"standrieux","St-Andrieux","","43.690399","6.979671","","",""
"sthonorat","St-Honorat","","43.570632","7.107038","","",""
"templiers","TEMPLIERS","","43.616982","7.074138","","",""
"trianon","Trianon","","43.574465","7.099069","","",""
"usinemane","Usine Mane","","43.694642","6.978847","","",""
"valbonnevillage","VALBONNE VILLAGE","","43.642547","7.007112","","",""
"valdecuberte","Val de Cuberte","","43.634983","7.002456","","",""
"vallonvert","Vallon Vert","","43.597246","7.104924","","",""
"valmartin","VAL MARTIN","","43.623704","7.014023","","",""
"véronière","Véronière","","43.643487","7.022196","","",""
"wilson","Wilson","","43.578495","7.119445","","",""
"écoledelatour","École de la Tour","","43.661468","6.987491","","",""
"écolemistral","École Mistral","","43.667862","6.989725","","",""
